[
  {"name": "Colombo", "country": "LK", "lat": 6.9271, "lon": 79.8612},
  {"name": "Kandy", "country": "LK", "lat": 7.2906, "lon": 80.6337},
  {"name": "Galle", "country": "LK", "lat": 6.0320, "lon": 80.2170},
  {"name": "Jaffna", "country": "LK", "lat": 9.6615, "lon": 80.0255},
  {"name": "Negombo", "country": "LK", "lat": 7.2083, "lon": 79.8358},
  {"name": "Anuradhapura", "country": "LK", "lat": 8.3114, "lon": 80.4037},
  {"name": "Matara", "country": "LK", "lat": 5.9485, "lon": 80.5353},
  {"name": "Trincomalee", "country": "LK", "lat": 8.5874, "lon": 81.2152},
  {"name": "Batticaloa", "country": "LK", "lat": 7.7102, "lon": 81.6924},
  {"name": "Ratnapura", "country": "LK", "lat": 6.6828, "lon": 80.3992},
  {"name": "Delhi", "country": "IN", "lat": 28.6139, "lon": 77.2090},
  {"name": "Mumbai", "country": "IN", "lat": 19.0760, "lon": 72.8777},
  {"name": "Hyderabad", "country": "IN", "lat": 17.3850, "lon": 78.4867},
  {"name": "Bangalore", "country": "IN", "lat": 12.9716, "lon": 77.5946},
  {"name": "Kolkata", "country": "IN", "lat": 22.5726, "lon": 88.3639},
  {"name": "Chennai", "country": "IN", "lat": 13.0827, "lon": 80.2707},
  {"name": "Pune", "country": "IN", "lat": 18.5204, "lon": 73.8567},
  {"name": "Ahmedabad", "country": "IN", "lat": 23.0225, "lon": 72.5714},
  {"name": "Jaipur", "country": "IN", "lat": 26.9124, "lon": 75.7873},
  {"name": "Lucknow", "country": "IN", "lat": 26.8467, "lon": 80.9462},
  {"name": "Kanpur", "country": "IN", "lat": 26.4499, "lon": 80.3319},
  {"name": "Nagpur", "country": "IN", "lat": 21.1458, "lon": 79.0882},
  {"name": "Indore", "country": "IN", "lat": 22.7196, "lon": 75.8577},
  {"name": "Thane", "country": "IN", "lat": 19.2183, "lon": 72.9781},
  {"name": "Bhopal", "country": "IN", "lat": 23.2599, "lon": 77.4126},
  {"name": "Visakhapatnam", "country": "IN", "lat": 17.6868, "lon": 83.2185},
  {"name": "Patna", "country": "IN", "lat": 25.5941, "lon": 85.1376},
  {"name": "Vadodara", "country": "IN", "lat": 22.3072, "lon": 73.1812},
  {"name": "Ghaziabad", "country": "IN", "lat": 28.6692, "lon": 77.4538},
  {"name": "Ludhiana", "country": "IN", "lat": 30.9000, "lon": 75.8573}
] 